stop_id,stop_code,stop_name,stop_desc,stop_lat,stop_lon,zone_id,stop_url,location_type,parent_station,stop_timezone,wheelchair_boarding
46830,46830,Kelebija Opština,,46.124224,19.611253,1,,,,,0
46831,46831,Kelebija Opština,,46.124074,19.611575,1,,,,,0
46840,46840,Veliki Progon,,46.118792,19.622689,1,,,,,0
46841,46841,Veliki Progon,,46.119356,19.62165,1,,,,,0
46850,46850,Zorka Okretište,,46.115283,19.629737,1,,,,,0
46851,46851,Zorka Okretište,,46.115551,19.629482,1,,,,,0
46860,46860,Zorka,,46.113645,19.632783,1,,,,,0
46861,46861,Zorka,,46.113851,19.632562,1,,,,,0
46870,46870,Zorka Pruga,,46.11101,19.637665,1,,,,,0
46871,46871,Zorka Pruga,,46.111514,19.63621,1,,,,,0
46880,46880,O.Š. Sečenji Ištvan,,46.107174,19.643451,1,,,,,0
46881,46881,O.Š. Sečenji Ištvan,,46.107109,19.643784,1,,,,,0
46890,46890,Zdravstvena Stanica,,46.10393,19.647978,1,,,,,0
46891,46891,Zdravstvena Stanica,,46.104041,19.647979,1,,,,,0
46900,46900,Sadecki,,46.100052,19.653378,1,,,,,0
46901,46901,Sadecki,,46.100096,19.65348,1,,,,,0
46910,46910,Preradovićeva,,46.09754,19.656544,1,,,,,0
46911,46911,Preradovićeva,,46.097585,19.656597,1,,,,,0
46912,46912,Preradovićeva,,46.096373,19.656617,1,,,,,0
46913,46913,Preradovićeva,,46.096524,19.656547,1,,,,,0
46920,46920,Lifka,,46.098422,19.660073,1,,,,,0
46921,46921,Lifka,,46.098348,19.659736,1,,,,,0
46930,46930,Sinagoga,,46.10062,19.660853,1,,,,,0
46931,46931,Sinagoga,,46.1013,19.660342,1,,,,,0
46940,46940,Arsenija Čarnojevića,,46.103747,19.665628,1,,,,,0
46941,46941,Arsenija Čarnojevića,,46.103297,19.663984,1,,,,,0
46950,46950,Higijenski Zavod,,46.102784,19.668193,1,,,,,0
46951,46951,Higijenski Zavod,,46.10383,19.667864,1,,,,,0
46960,46960,Jadran,,46.100594,19.669294,1,,,,,0
46961,46961,Jadran,,46.100575,19.669536,1,,,,,0
46970,46970,Mešc,,46.097497,19.670768,1,,,,,0
46971,46971,Mešc,,46.097641,19.670883,1,,,,,0
46980,46980,Autobuska Stanica Grad,,46.094787,19.673747,1,,,,,0
46981,46981,Autobuska Stanica Grad,,46.094571,19.674466,1,,,,,0
46990,46990,Dinamotrans,,46.090973,19.680395,1,,,,,0
46991,46991,Dinamotrans,,46.091263,19.680246,1,,,,,0
47000,47000,Senćansko Groblje,,46.088009,19.6836,1,,,,,0
47001,47001,Senćansko Groblje,,46.088467,19.683376,1,,,,,0
47010,47010,Bajnatska I,,46.085784,19.678787,1,,,,,0
47011,47011,Bajnatska I,,46.085617,19.678617,1,,,,,0
47020,47020,Bajnatska II,,46.084356,19.674823,1,,,,,0
47021,47021,Bajnatska II,,46.084157,19.674543,1,,,,,0
47030,47030,Bolnica 1 Subotica,,46.08284,19.672691,1,,,,,0
47031,47031,Bolnica 1 Subotica,,46.082499,19.672468,1,,,,,0
47040,47040,Pačirski Put,,46.079068,19.666485,1,,,,,0
47041,47041,Pačirski Put,,46.078274,19.66666,1,,,,,0
47050,47050,Dušana Krnjanskog,,46.075378,19.670467,1,,,,,0
47051,47051,Dušana Krnjanskog,,46.075786,19.670128,1,,,,,0
47060,47060,Novo Naselje Pijaca,,46.071477,19.673937,1,,,,,0
47061,47061,Novo Naselje Pijaca,,46.071666,19.673989,1,,,,,0
47070,47070,Josipa Lihta,,46.069297,19.670775,1,,,,,0
47071,47071,Josipa Lihta,,46.069182,19.67069,1,,,,,0
47080,47080,Josipa Šokčića,,46.06769,19.668383,1,,,,,0
47081,47081,Josipa Šokčića,,46.067762,19.668667,1,,,,,0
47090,47090,Slavica,,46.091265,19.648159,1,,,,,0
47091,47091,Slavica,,46.091828,19.648728,1,,,,,0
47100,47100,Petra Horvatskog,,46.065408,19.670868,1,,,,,0
47101,47101,Petra Horvatskog,,46.066077,19.67006,1,,,,,0
47110,47110,Novo Naselje Okretište,,46.066338,19.674816,1,,,,,0
47111,47111,Novo Naselje Okretište,,46.066203,19.674509,1,,,,,0
47240,47240,Dr Ferenca Bodrogvarija,,46.131686,19.639003,1,,,,,0
47241,47241,Dr Ferenca Bodrogvarija,,46.13196,19.638824,1,,,,,0
47310,47310,Prodavnica Fareks,,46.128434,19.642677,1,,,,,0
47311,47311,Prodavnica Fareks,,46.128538,19.642716,1,,,,,0
47320,47320,Zorkina,,46.125135,19.64589,1,,,,,0
47321,47321,Zorkina,,46.125229,19.64589,1,,,,,0
47340,47340,Padejska,,46.121973,19.648257,1,,,,,0
47341,47341,Padejska,,46.122008,19.648338,1,,,,,0
47350,47350,Drvara Subotica,,46.119446,19.650124,1,,,,,0
47351,47351,Drvara Subotica,,46.11951,19.650191,1,,,,,0
47360,47360,Somborska,,46.116461,19.652324,1,,,,,0
47361,47361,Somborska,,46.116469,19.652405,1,,,,,0
47370,47370,Bazeni,,46.113618,19.654332,1,,,,,0
47371,47371,Bazeni,,46.113543,19.654504,1,,,,,0
47380,47380,Dudova Šuma-Groblje,,46.110193,19.657285,1,,,,,0
47381,47381,Dudova Šuma-Groblje,,46.110164,19.657502,1,,,,,0
47390,47390,Hala Sportova,,46.108399,19.655774,1,,,,,0
47391,47391,Hala Sportova,,46.108631,19.656119,1,,,,,0
47400,47400,Samoposluga Broj 23,,46.104615,19.65935,1,,,,,0
47401,47401,Samoposluga Broj 23,,46.104858,19.659593,1,,,,,0
47410,47410,Politehnička Škola,,46.096587,19.662062,1,,,,,0
47420,47420,Pačirski Put Ev-Pro,,46.078341,19.66549,1,,,,,0
47421,47421,Pačirski Put Ev-Pro,,46.078479,19.665803,1,,,,,0
47430,47430,Kerska Crkva,,46.089423,19.665762,1,,,,,0
47431,47431,Kerska Crkva,,46.090201,19.66491,1,,,,,0
47440,47440,Bolnica 2 - Subotica,,46.082228,19.673705,1,,,,,0
47441,47441,Bolnica 2 - Subotica,,46.081762,19.674172,1,,,,,0
47450,47450,Aleksandrovo - Groblje,,46.066037,19.680966,1,,,,,0
47451,47451,Aleksandrovo - Groblje,,46.066593,19.681208,1,,,,,0
47470,47470,Bajski Put,,46.101857,19.624602,1,,,,,0
47471,47471,Bajski Put,,46.101716,19.624186,1,,,,,0
47480,47480,Bunar,,46.102703,19.631275,1,,,,,0
47481,47481,Bunar,,46.102614,19.631211,1,,,,,0
47490,47490,Bajski Put - Dom,,46.102741,19.639339,1,,,,,0
47491,47491,Bajski Put - Dom,,46.102658,19.639348,1,,,,,0
47510,47510,Drvara Raskrsnica,,46.101687,19.642997,1,,,,,0
47511,47511,Drvara Raskrsnica,,46.101284,19.644105,1,,,,,0
47530,47530,Škola Đuro Salaj,,46.100554,19.647596,1,,,,,0
47531,47531,Škola Đuro Salaj,,46.100366,19.648276,1,,,,,0
47550,47550,Sadecki Bajski Put,,46.09961,19.653164,1,,,,,0
47551,47551,Sadecki Bajski Put,,46.099583,19.652994,1,,,,,0
47570,47570,Matije Gupca,,46.097339,19.662307,1,,,,,0
47580,47580,Pošta I,,46.097355,19.664437,1,,,,,0
47581,47581,Pošta I,,46.097132,19.664214,1,,,,,0
47601,47601,Subotica - Nova Opština,,46.099595,19.670871,1,,,,,0
47620,47620,Radio Subotica,,46.101152,19.673319,1,,,,,0
47621,47621,Radio Subotica,,46.101445,19.673323,1,,,,,0
47640,47640,Železničar,,46.107611,19.669942,1,,,,,0
47641,47641,Železničar,,46.107554,19.670126,1,,,,,0
47650,47650,Skrob,,46.111196,19.669995,1,,,,,0
47651,47651,Skrob,,46.110916,19.669949,1,,,,,0
47670,47670,Škola Majšanski Put,,46.115127,19.672618,1,,,,,0
47671,47671,Škola Majšanski Put,,46.114727,19.672604,1,,,,,0
47690,47690,Kolar,,46.118533,19.673734,1,,,,,0
47691,47691,Kolar,,46.119139,19.67398,1,,,,,0
47730,47730,II Krivina,,46.125928,19.676831,1,,,,,0
47731,47731,II Krivina,,46.125425,19.676632,1,,,,,0
47740,47740,I Krivina,,46.130764,19.67434,1,,,,,0
47741,47741,I Krivina,,46.130746,19.674439,1,,,,,0
47760,47760,Oficirski Stanovi,,46.133842,19.677745,1,,,,,0
47761,47761,Oficirski Stanovi,,46.13406,19.67794,1,,,,,0
47780,47780,Mz Graničar,,46.139661,19.681432,1,,,,,0
47781,47781,Mz Graničar,,46.139658,19.681526,1,,,,,0
47790,47790,Slovinov Put,,46.145116,19.676462,1,,,,,0
47791,47791,Slovinov Put,,46.145592,19.676054,1,,,,,0
47810,47810,Makova Sedmica,,46.149926,19.672319,1,,,,,0
47811,47811,Makova Sedmica,,46.150599,19.67225,1,,,,,0
47880,47880,Vatrogasci,,46.095095,19.660452,1,,,,,0
47881,47881,Vatrogasci,,46.094391,19.660019,1,,,,,0
47900,47900,Teretna Stanica,,46.100148,19.675509,1,,,,,0
47901,47901,Teretna Stanica,,46.09999,19.675207,1,,,,,0
47920,47920,Subotica Sup,,46.099935,19.680657,1,,,,,0
47921,47921,Subotica Sup,,46.099741,19.682663,1,,,,,0
47940,47940,Subotica - Partizan,,46.100023,19.68612,1,,,,,0
47941,47941,Subotica - Partizan,,46.100235,19.688064,1,,,,,0
47960,47960,Suboticatrans,,46.101451,19.694739,1,,,,,0
47961,47961,Suboticatrans,,46.101276,19.694412,1,,,,,0
47980,47980,Subotica - Aurometal,,46.102021,19.699723,1,,,,,0
47981,47981,Subotica - Aurometal,,46.101755,19.698794,1,,,,,0
47990,47990,Subotica - II Kasarna,,46.103556,19.713081,1,,,,,0
47991,47991,Subotica - II Kasarna,,46.103366,19.713169,1,,,,,0
48000,48000,Trgopromet,,46.105492,19.72874,1,,,,,0
48001,48001,Trgopromet,,46.1053,19.728905,1,,,,,0
48040,48040,Veliki Radanovac Mz,,46.107458,19.72791,1,,,,,0
48041,48041,Veliki Radanovac Mz,,46.107561,19.727973,1,,,,,0
48060,48060,Palmina,,46.109388,19.732072,1,,,,,0
48061,48061,Palmina,,46.109386,19.732316,1,,,,,0
48070,48070,Beli Golub,,46.112565,19.731748,1,,,,,0
48071,48071,Beli Golub,,46.112567,19.731894,1,,,,,0
48090,48090,Vrtna Stanica,,46.116009,19.730371,1,,,,,0
48091,48091,Vrtna Stanica,,46.115752,19.730624,1,,,,,0
48110,48110,Peščarin Voćnjak,,46.119157,19.729147,1,,,,,0
48111,48111,Peščarin Voćnjak,,46.119369,19.729132,1,,,,,0
48130,48130,Kestenova,,46.122407,19.727641,1,,,,,0
48131,48131,Kestenova,,46.122544,19.727798,1,,,,,0
48150,48150,Rasadnik V.Radanovac,,46.125406,19.726032,1,,,,,0
48151,48151,Rasadnik V.Radanovac,,46.125692,19.725884,1,,,,,0
48170,48170,Veliki Radanovac Okretište,,46.129048,19.722742,1,,,,,0
48171,48171,Veliki Radanovac Okretište,,46.129119,19.722844,1,,,,,0
48220,48220,Palić - Vikend Naselje,,46.08835,19.768346,1,,,,,0
48221,48221,Palić - Vikend Naselje,,46.088553,19.76769,1,,,,,0
48230,48230,Palić - Štrand,,46.094053,19.766714,1,,,,,0
48231,48231,Palić - Štrand,,46.094205,19.766199,1,,,,,0
48240,48240,Palić - Lovranska,,46.099418,19.76447,1,,,,,0
48241,48241,Palić - Lovranska,,46.099569,19.764318,1,,,,,0
48250,48250,Palić - Centar,,46.10226,19.760647,1,,,,,0
48251,48251,Palić - Centar,,46.102014,19.762305,1,,,,,0
48261,48261,Palić - Toranj,,46.102349,19.758011,1,,,,,0
48270,48270,Zoo Vrt,,46.103056,19.751614,1,,,,,0
48271,48271,Zoo Vrt,,46.102797,19.753055,1,,,,,0
48280,48280,Palić - Benzinska Pumpa,,46.103857,19.742532,1,,,,,0
48281,48281,Palić - Benzinska Pumpa,,46.103645,19.743,1,,,,,0
48290,48290,Radanovac,,46.105109,19.727456,1,,,,,0
48291,48291,Radanovac,,46.104742,19.730106,1,,,,,0
48300,48300,Drvena Ambulanta,,46.094853,19.653816,1,,,,,0
48301,48301,Drvena Ambulanta,,46.094683,19.653684,1,,,,,0
48310,48310,Gajeva,,46.093272,19.651452,1,,,,,0
48311,48311,Gajeva,,46.093198,19.651001,1,,,,,0
48320,48320,Dom Mali Bajmok,,46.089234,19.645285,1,,,,,0
48321,48321,Dom Mali Bajmok,,46.088484,19.643998,1,,,,,0
48480,48480,Subotica - Sever,,46.098044,19.698452,1,,,,,0
48481,48481,Subotica - Sever,,46.097939,19.698105,1,,,,,0
48490,48490,Sut,,46.100976,19.691183,1,,,,,0
48491,48491,Sut,,46.101533,19.691795,1,,,,,0
48550,48550,Prozivka,,46.086617,19.66908,1,,,,,0
48551,48551,Prozivka,,46.087503,19.668381,1,,,,,0
48560,48560,Masloš,,46.08485,19.671337,1,,,,,0
48561,48561,Masloš,,46.084457,19.67208,1,,,,,0
48580,48580,Veterinarski Zavod,,46.076126,19.677297,1,,,,,0
48581,48581,Veterinarski Zavod,,46.075804,19.677791,1,,,,,0
48590,48590,Aleksandrovo - Peščara,,46.071731,19.679449,1,,,,,0
48591,48591,Aleksandrovo - Peščara,,46.072893,19.679188,1,,,,,0
48620,48620,Aleksandrovo Okretnica,,46.06629,19.687634,1,,,,,0
48621,48621,Aleksandrovo Okretnica,,46.066189,19.687343,1,,,,,0
48650,48650,Subotica - Partizanska,,46.106052,19.741872,1,,,,,0
48651,48651,Subotica - Partizanska,,46.106068,19.742311,1,,,,,0
48660,48660,Rogaška,,46.107218,19.747338,1,,,,,0
48661,48661,Rogaška,,46.107028,19.746889,1,,,,,0
48671,48671,Ružina,,46.108102,19.75194,1,,,,,0
48681,48681,Josipa Kolumba,,46.109534,19.758707,1,,,,,0
48700,48700,Palić Naselje Pulska,,46.109382,19.76366,1,,,,,0
48701,48701,Palić Naselje Pulska,,46.109536,19.763588,1,,,,,0
48710,48710,Orbanfalova,,46.106812,19.759886,1,,,,,0
48720,48720,Košut Lajoša,,46.105479,19.75405,1,,,,,0
48730,48730,Oš Miroslav Antić,,46.106648,19.749545,1,,,,,0
48740,48740,Plate Dobrijevića 2,,46.068493,19.679289,1,,,,,0
48741,48741,Plate Dobrijevića 2,,46.068644,19.6797,1,,,,,0
48750,48750,Plate Dobrijevića 1,,46.067717,19.675735,1,,,,,0
48751,48751,Plate Dobrijevića 1,,46.067686,19.67536,1,,,,,0
48760,48760,Kolevka,,46.081191,19.669242,1,,,,,0
48761,48761,Kolevka,,46.081512,19.668918,1,,,,,0
48770,48770,Obdanište Ker,,46.085002,19.663617,1,,,,,0
48771,48771,Obdanište Ker,,46.084544,19.66447,1,,,,,0
48780,48780,Berber Milan,,46.087112,19.663595,1,,,,,0
48781,48781,Berber Milan,,46.086738,19.664383,1,,,,,0
48790,48790,Kersko Groblje,,46.088176,19.660183,1,,,,,0
48791,48791,Kersko Groblje,,46.088539,19.659667,1,,,,,0
48800,48800,Bife Gat,,46.090487,19.656445,1,,,,,0
48801,48801,Bife Gat,,46.090957,19.656314,1,,,,,0
48810,48810,Gubo Đar,,46.110637,19.663148,1,,,,,0
48811,48811,Gubo Đar,,46.110556,19.66324,1,,,,,0
48820,48820,Pruga Subotica,,46.114358,19.666057,1,,,,,0
48821,48821,Pruga Subotica,,46.114339,19.666193,1,,,,,0
48850,48850,Patrija,,46.099334,19.669045,1,,,,,0
48860,48860,Mali Bajmok,,46.086839,19.641901,1,,,,,0
48861,48861,Mali Bajmok,,46.086024,19.640484,1,,,,,0
48880,48880,Železničko Naselje,,46.118346,19.665293,1,,,,,0
48881,48881,Železničko Naselje,,46.118482,19.665398,1,,,,,0
51310,51310,Teslino Naselje Pijaca,,46.106832,19.688883,1,,,,,0
51311,51311,Teslino Naselje Pijaca,,46.107511,19.688591,1,,,,,0
51830,51830,Radnoti Mikloša,,46.109055,19.68753,1,,,,,0
51831,51831,Radnoti Mikloša,,46.110291,19.687195,1,,,,,0
51840,51840,Teslino Naselje,,46.113164,19.685455,1,,,,,0
51841,51841,Teslino Naselje,,46.113013,19.685551,1,,,,,0
53550,53550,Jasenovačka,,46.102693,19.634588,1,,,,,0
53551,53551,Jasenovačka,,46.102628,19.63449,1,,,,,0
62570,62570,Batinska,,46.083058,19.636555,1,,,,,0
62571,62571,Batinska,,46.083,19.636176,1,,,,,0
62580,62580,Dunkenmotoren,,46.080002,19.635676,1,,,,,0
62581,62581,Dunkenmotoren,,46.080023,19.635595,1,,,,,0
62590,62590,Calzedonia,,46.078143,19.632964,1,,,,,0
62591,62591,Calzedonia,,46.077982,19.632599,1,,,,,0
73620,73620,Ganjo Šor,,46.134503,19.635832,1,,,,,0
73621,73621,Ganjo Šor,,46.134868,19.63552,1,,,,,0
73630,73630,Široki Progon,,46.136907,19.633103,1,,,,,0
73631,73631,Široki Progon,,46.136928,19.633221,1,,,,,0
73640,73640,Višnjička,,46.122462,19.664939,1,,,,,0
73641,73641,Višnjička,,46.121111,19.664987,1,,,,,0
73650,73650,Jovana Mikića 198,,46.124833,19.664794,1,,,,,0
73651,73651,Jovana Mikića 198,,46.125789,19.664686,1,,,,,0
73660,73660,Jovana Mikića 263,,46.126896,19.664088,1,,,,,0
73661,73661,Jovana Mikića 263,,46.127371,19.664008,1,,,,,0
73670,73670,Đerđa Lukača,,46.135842,19.660045,1,,,,,0
73671,73671,Đerđa Lukača,,46.135948,19.660145,1,,,,,0
73751,73751,Marije Bursać,,46.110301,19.762341,1,,,,,0
74040,74040,Mali Bajmok - Swarovski,,46.07547,19.635762,1,,,,,0
74041,74041,Mali Bajmok - Swarovski,,46.074925,19.635694,1,,,,,0